Rank	City	Population (2000)	Latitude (DD)	Longitude (DD)
1	Tokyo	8294200	35.670	139.770
2	Yokohama	3525600	35.470	139.620
3	Osaka	2596700	34.680	135.500
4	Nagoya	2196400	35.150	136.910
5	Sapporo	1853600	43.060	141.340
6	Kobe	1535100	34.680	135.170
7	Kyoto	1468200	35.010	135.750
8	Fukuoka	1376100	33.590	130.410
9	Kawasaki	1288000	35.530	139.700
10	Hiroshima	1134800	34.390	132.440
11	Sendai	1029200	38.260	140.890
12	Kitakyushu	1009700	33.880	130.860
13	Chiba	909800	35.610	140.110
14	Sakai	786200	34.570	135.480
15	Kumamoto	667200	32.800	130.710
16	Okayama	632500	34.670	133.920
17	Sagamihara	630900	35.580	139.380
18	Hamamatsu	594700	34.720	137.730
19	Funabashi	558800	35.700	139.990
20	Hachioji	558800	35.660	139.330
21	Kagoshima	553400	31.590	130.560
22	Higashiosaka	513900	34.670	135.590
23	Urawa	505000	35.870	139.640
24	Niigata	503300	37.920	139.040
25	Himeji	483300	34.830	134.690
26	Matsuyama	478400	33.840	132.770
27	Omiya	471800	35.910	139.630
28	Matsudo	469800	35.780	139.900
29	Kawaguchi	468500	35.810	139.730
30	Shizuoka	468500	34.980	138.390
31	Nishinomiya	465800	34.730	135.340
32	Kanazawa	457300	36.560	136.640
33	Ichikawa	456000	35.720	139.930
34	Amagasaki	455800	34.710	135.410
35	Utsunomiya	448700	36.560	139.890
36	Oita	440900	33.240	131.600
37	Kurashiki	434300	34.610	133.770
38	Yokosuka	430900	35.270	139.670
39	Nagasaki	413100	32.750	129.880
40	Hirakata	403800	34.810	135.660
41	Gifu	400500	35.420	136.760
42	Machida	390100	35.560	139.430
43	Fujisawa	388600	35.330	139.470
44	Toyonaka	387900	34.780	135.480
45	Fukuyama	380800	34.500	133.370
46	Wakayama	380300	34.220	135.170
47	Toyohashi	373800	34.760	137.390
48	Nara	369000	34.690	135.830
49	Nagano	360700	36.650	138.180
50	Toyota	358900	35.090	137.160
51	Iwaki	358600	37.050	140.880
52	Asahikawa	358100	43.770	142.360
53	Takatsuki	354900	34.850	135.620
54	Suita	350700	34.750	135.520
55	Okazaki	346500	34.960	137.160
56	Koriyama	338000	37.410	140.380
57	Tokorozawa	337100	35.800	139.470
58	Kawagoe	336500	35.920	139.490
59	Kashiwa	335600	35.870	139.970
60	Kochi	333900	33.560	133.540
61	Takamatsu	333200	34.340	134.040
62	Toyama	325200	36.700	137.220
63	Akita	317900	39.710	140.110
64	Koshigaya	315300	35.890	139.790
65	Miyazaki	307900	31.910	131.420
66	Naha	303500	26.210	127.700
67	Aomori	298400	40.830	140.740
68	Otsu	296800	35.010	135.870
69	Akashi	296700	34.660	134.980
70	Kasugai	295000	35.240	136.980
71	Yokkaichi	294100	34.970	136.640
72	Fukushima	293000	37.750	140.470
73	Morioka	288700	39.700	141.150
74	Maebashi	284200	36.390	139.060
75	Hakodate	281200	41.800	140.740
76	Ichihara	280700	35.530	140.090
77	Ichinomiya	279000	35.300	136.800
78	Yao	273800	34.630	135.580
79	Kakogawa	269800	34.770	134.840
80	Tokushima	266800	34.070	134.550
81	Ibaraki	261900	34.810	135.570
82	Hiratsuka	257500	35.330	139.350
83	Yamagata	254400	38.250	140.330
84	Fukui	250100	36.080	136.220
85	Shimonoseki	247300	33.960	130.940
86	Mito	247000	36.380	140.470
87	Neyagawa	246800	34.790	135.640
88	Takasaki	241200	36.330	139.020
89	Hachinohe	240400	40.520	141.530
90	Kurume	238300	33.310	130.510
91	Fuji	237500	35.170	138.690
92	Sasebo	237500	33.160	129.720
93	Shimizu	235600	35.020	138.490
94	Fuchu	234500	35.670	139.480
95	Soka	230100	35.820	139.790
96	Chigasaki	227300	35.330	139.410
97	Atsugi	224300	35.450	139.360
98	Yamato	219700	35.520	139.470
99	Takarazuka	219300	34.800	135.350
100	Ageo	217800	35.950	139.610
101	Matsumoto	210700	36.240	137.970
102	Chofu	209900	35.650	139.550
103	Kasukabe	206200	35.980	139.770
104	Numazu	205600	35.100	138.860
105	Kishiwada	203000	34.470	135.390
106	Odawara	202100	35.250	139.160
107	Kure	199700	34.250	132.560
108	Itami	194600	34.780	135.420
109	Nagaoka	194300	37.460	138.850
110	Kofu	193300	35.660	138.570
111	Uji	191200	34.900	135.800
112	Hitachi	190300	36.590	140.660
113	Suzuka	189700	34.880	136.580
114	Kushiro	187400	42.980	144.380
115	Kodaira	183200	35.740	139.490
116	Izumi	181700	34.480	135.420
117	Yachiyo	178000	35.740	140.100
118	Sakura	176700	35.720	140.230
119	Mitaka	176300	35.680	139.570
120	Hirosaki	175800	40.600	140.470
121	Obihiro	173300	42.920	143.190
122	Tomakomai	173100	42.630	141.590
123	Ube	173100	33.940	131.240
124	Hadano	171600	35.370	139.230
125	Tsukuba	171500	36.210	140.090
126	Takaoka	171100	36.750	137.020
127	Hino	170100	35.680	139.400
128	Tachikawa	169900	35.700	139.410
129	Kamakura	167700	35.320	139.550
130	Saga	165800	33.250	130.300
131	Anjo	165100	34.960	137.100
132	Tsu	163400	34.720	136.510
133	Ashikaga	161900	36.350	139.450
134	Sayama	161900	35.870	139.400
135	Kawanishi	159200	34.820	135.420
136	Oyama	158100	36.320	139.800
137	Kumagaya	156900	36.150	139.390
138	Narashino	155700	35.690	140.040
139	Matsue	154600	35.480	133.040
140	Hitachinaka	154400	36.400	140.520
141	Nagareyama	153900	35.860	139.910
142	Niiza	152900	35.810	139.550
143	Tottori	152300	35.500	134.230
144	Ota	150800	36.300	139.380
145	Iruma	150600	35.830	139.380
146	Ogaki	150500	35.370	136.610
147	Moriguchi	149700	34.730	135.570
148	Higashimurayama	147500	35.750	139.470
149	Komaki	147400	35.300	136.910
150	Otaru	147100	43.200	141.000
151	Tama	145900	35.610	139.460
152	Ome	144900	35.790	139.260
153	Yamaguchi	142400	34.180	131.480
154	Yonago	140100	35.440	133.340
155	Urayasu	139100	35.670	139.900
156	Musashino	137300	35.710	139.580
157	Kariya	136700	34.990	137.000
158	Tsuchiura	136100	36.090	140.190
159	Joetsu	135700	37.120	138.250
160	Omuta	135700	33.020	130.440
161	Seto	133700	35.220	137.080
162	Kadoma	133100	34.730	135.590
163	Kakamigahara	132000	35.410	136.890
164	Matsubara	131600	34.570	135.550
165	Miyakonojo	131100	31.720	131.060
166	Zama	131100	35.500	139.400
167	Fujieda	130800	34.880	138.260
168	Abiko	130500	35.880	140.030
169	Misato	130400	35.830	139.880
170	Tondabayashi	129200	34.520	135.600
171	Daito	129000	34.710	135.620
172	Isesaki	129000	36.320	139.200
173	Higashihiroshima	128600	34.440	132.720
174	Ebetsu	128200	43.120	141.550
175	Ueda	126400	36.400	138.250
176	Kashihara	126300	34.500	135.800
177	Beppu	125400	33.280	131.500
178	Asaka	125300	35.830	139.580
179	Matsusaka	124500	34.580	136.530
180	Kusatsu	123900	35.020	135.950
181	Niihama	123800	33.960	133.270
182	Mino	123500	34.830	135.470
183	Nobeoka	123400	32.580	131.680
184	Kisarazu	123200	35.380	139.930
185	Okinawa	123200	26.340	127.790
186	Kawachinagano	123100	34.480	135.570
187	Ebina	120900	35.470	139.420
188	Fujinomiya	120900	35.220	138.610
189	Noda	120800	35.950	139.870
190	Sanda	120600	34.890	135.220
191	Habikino	120100	34.560	135.610
192	Yaizu	119800	34.870	138.320
193	Toyokawa	119700	34.820	137.390
194	Ishinomaki	119200	38.430	141.290
195	Aizuwakamatsu	116900	37.490	139.930
196	Hofu	116500	34.050	131.570
197	Imabari	116300	34.060	133.000
198	Ikoma	115900	34.700	135.720
199	Higashikurume	115500	35.760	139.530
200	Kokubunji	115500	35.700	139.480
201	Toda	114500	35.820	139.680
202	Koganei	114200	35.720	139.520
203	Handa	114000	34.900	136.940
204	Kiryu	113100	36.430	139.330
205	Kitami	112600	43.810	143.890
206	Mishima	112200	35.120	138.920
207	Kuwana	111400	35.080	136.700
208	Hikone	111000	35.270	136.240
209	Iwatsuki	109700	35.960	139.700
210	Komatsu	108900	36.410	136.440
211	Kasuga	108800	33.540	130.470
212	Iida	107600	35.520	137.830
213	Urasoe	107500	26.260	127.730
214	Fujimi	107300	35.870	139.540
215	Akishima	107000	35.700	139.360
216	Fukaya	105900	36.210	139.280
217	Tajimi	105700	35.330	137.130
218	Yatsushiro	105100	32.510	130.600
219	Hoya	104900	35.740	139.580
220	Kamagaya	104800	35.770	140.010
221	Iwakuni	104400	34.170	132.230
222	Nishio	102600	34.870	137.060
223	Tokuyama	102100	34.050	131.800
224	Inazawa	101800	35.250	136.770
225	Isehara	101300	35.410	139.320
226	Sakata	100800	38.910	139.830
227	Tokai	100700	35.030	136.890
228	Ikeda	100100	34.820	135.430
229	Tsuruoka	100100	38.730	139.820
230	Konan	99900	35.340	136.860
231	Muroran	99800	42.340	141.010
232	Chikushino	99600	33.480	130.520
233	Ise	98900	34.490	136.710
234	Narita	98700	35.790	140.320
235	Izumisano	98000	34.420	135.320
236	Sakado	97400	35.950	139.410
237	Isahaya	95800	32.840	130.050
238	Kameoka	95600	35.020	135.570
239	Mobara	95600	35.430	140.290
240	Takasago	95400	34.800	134.650
241	Kanuma	94800	36.570	139.750
242	Yonezawa	94800	37.910	140.100
243	Kani	94600	35.430	137.070
244	Maizuru	93600	35.450	135.320
245	Yamatokoriyama	93400	34.640	135.790
246	Onojo	93300	33.540	130.480
247	Higashimatsuyama	93200	36.050	139.400
248	Kitakami	93000	39.290	141.120
249	Kimitsu	92100	35.330	139.910
250	Onomichi	91900	34.410	133.190
251	Chitose	90900	42.830	141.640
252	Kaizuka	90600	34.450	135.360
253	Ginowan	89700	26.300	127.790
254	Tsuyama	89600	35.070	134.010
255	Ashiya	89000	34.730	135.310
256	Izumo	88200	35.360	132.750
257	Iwata	87800	34.720	137.850
258	Gyoda	86800	36.140	139.470
259	Omura	86800	32.910	129.950
260	Kashiwazaki	86700	37.380	138.570
261	Konosu	86600	36.050	139.530
262	Hamakita	85700	34.800	137.780
263	Nabari	85200	34.630	136.090
264	Hanno	85100	35.860	139.320
265	Iwamizawa	84800	43.200	141.760
266	Yotsukaido	84800	35.680	140.170
267	Munakata	84400	33.810	130.550
268	Settsu	83900	34.780	135.550
269	Yono	83900	35.900	139.620
270	Joyo	83700	34.860	135.770
271	Sanjo	83500	37.620	138.960
272	Tochigi	83200	36.380	139.730
273	Gotemba	83100	35.310	138.930
274	Sano	83100	36.320	139.580
275	Chita	82300	35.000	136.860
276	Kakegawa	82300	34.770	138.030
277	Ayase	82000	35.440	139.430
278	Gamagori	81800	34.840	137.230
279	Kanoya	81700	31.380	130.850
280	Toride	81500	35.900	140.070
281	Ryugasaki	81300	35.910	140.190
282	Marugame	81100	34.290	133.790
283	Mihara	81100	34.400	133.080
284	Tatebayashi	80900	36.250	139.530
285	Akiruno	80700	35.720	139.290
286	Tanashi	80700	35.740	139.550
287	Shibata	80600	37.940	139.320
288	Iizuka	79400	33.640	130.690
289	Katano	79400	34.780	135.680
290	Kashiwara	78700	34.590	135.640
291	Izumiotsu	78600	34.500	135.410
292	Karatsu	78400	33.440	129.970
293	Owariashi	78400	35.220	137.030
294	Higashiyamato	78300	35.740	139.410
295	Choshi	77400	35.750	140.810
296	Nagaokakyo	77300	34.930	135.700
297	Yachimata	77200	35.660	140.310
298	Ushiku	77100	36.000	140.140
299	Obu	77000	35.010	136.960
300	Komae	76900	35.630	139.580
